{
"type": "FeatureCollection",
"crs": { "type": "name", "properties": { "name": "urn:ogc:def:crs:OGC:1.3:CRS84" } },
                                                                                
"features": [
{ "type": "Feature", "properties": { "X": 632375.187187, "Y": 1054018.275000, "TOWN": "001", "WARD": "001", "DISTRICT": "001", "LOCATION": "First United Methodist Chuch", "ADDRESS": "100 North Main Street", "CITY": "Canandaigua", "HANDICAP": null, "PARK": null, "PHONE": null, "X_COORD": 635204.598125, "Y_COORD": 1055797.056875, "JOINCODE": "001001001" }, "geometry": { "type": "Point", "coordinates": [ -77.28425602657839, 42.890687371262715 ] } },
{ "type": "Feature", "properties": { "X": 632375.187187, "Y": 1054018.275000, "TOWN": "001", "WARD": "001", "DISTRICT": "002", "LOCATION": "First United Methodist Chuch", "ADDRESS": "100 North Main Street", "CITY": "Canandaigua", "HANDICAP": null, "PARK": null, "PHONE": null, "X_COORD": 635204.598125, "Y_COORD": 1055797.056875, "JOINCODE": "001001002" }, "geometry": { "type": "Point", "coordinates": [ -77.28425602657839, 42.890687371262715 ] } },
{ "type": "Feature", "properties": { "X": 635093.940000, "Y": 1051804.745000, "TOWN": "001", "WARD": "002", "DISTRICT": "001", "LOCATION": "Salvation Army", "ADDRESS": "110 Saltonstall St", "CITY": "Canandaigua", "HANDICAP": null, "PARK": null, "PHONE": null, "X_COORD": 635093.940000, "Y_COORD": 1051804.745000, "JOINCODE": "001002001" }, "geometry": { "type": "Point", "coordinates": [ -77.274043621910408, 42.88467580342779 ] } },
{ "type": "Feature", "properties": { "X": 635093.940000, "Y": 1051804.745000, "TOWN": "001", "WARD": "002", "DISTRICT": "002", "LOCATION": "Salvation Army", "ADDRESS": "110 Saltonstall St", "CITY": "Canandaigua", "HANDICAP": null, "PARK": null, "PHONE": null, "X_COORD": 635093.940000, "Y_COORD": 1051804.745000, "JOINCODE": "001002002" }, "geometry": { "type": "Point", "coordinates": [ -77.274043621910408, 42.88467580342779 ] } },
{ "type": "Feature", "properties": { "X": 631969.670000, "Y": 1049859.595000, "TOWN": "001", "WARD": "003", "DISTRICT": "001", "LOCATION": "Lutheran Church", "ADDRESS": "320 South Pearl St", "CITY": "Canandaigua", "HANDICAP": null, "PARK": null, "PHONE": null, "X_COORD": 631969.670000, "Y_COORD": 1049859.595000, "JOINCODE": "001003001" }, "geometry": { "type": "Point", "coordinates": [ -77.285639705793727, 42.879268012140166 ] } },
{ "type": "Feature", "properties": { "X": 631969.670000, "Y": 1049859.595000, "TOWN": "001", "WARD": "003", "DISTRICT": "002", "LOCATION": "Lutheran Church", "ADDRESS": "320 South Pearl St", "CITY": "Canandaigua", "HANDICAP": null, "PARK": null, "PHONE": null, "X_COORD": 631969.670000, "Y_COORD": 1049859.595000, "JOINCODE": "001003002" }, "geometry": { "type": "Point", "coordinates": [ -77.285639705793727, 42.879268012140166 ] } },
{ "type": "Feature", "properties": { "X": 712542.690000, "Y": 1044061.185000, "TOWN": "002", "WARD": "001", "DISTRICT": "001", "LOCATION": "Geneva Presbyterian Church", "ADDRESS": "24 Park Pl", "CITY": "Geneva", "HANDICAP": null, "PARK": null, "PHONE": null, "X_COORD": 712542.690000, "Y_COORD": 1044061.185000, "JOINCODE": "002001001" }, "geometry": { "type": "Point", "coordinates": [ -76.984933684920605, 42.864807554304384 ] } },
{ "type": "Feature", "properties": { "X": 712542.690000, "Y": 1044061.185000, "TOWN": "002", "WARD": "001", "DISTRICT": "002", "LOCATION": "Geneva Presbyterian Church", "ADDRESS": "24 Park Pl", "CITY": "Geneva", "HANDICAP": null, "PARK": null, "PHONE": null, "X_COORD": 712542.690000, "Y_COORD": 1044061.185000, "JOINCODE": "002001002" }, "geometry": { "type": "Point", "coordinates": [ -76.984933684920605, 42.864807554304384 ] } },
{ "type": "Feature", "properties": { "X": 709702.630000, "Y": 1044382.745000, "TOWN": "002", "WARD": "002", "DISTRICT": "001", "LOCATION": "West Street School", "ADDRESS": "30 West St", "CITY": "Geneva", "HANDICAP": null, "PARK": null, "PHONE": null, "X_COORD": 709702.630000, "Y_COORD": 1044382.745000, "JOINCODE": "002002001" }, "geometry": { "type": "Point", "coordinates": [ -76.995532912457563, 42.865652211076466 ] } },
{ "type": "Feature", "properties": { "X": 709702.630000, "Y": 1044382.745000, "TOWN": "002", "WARD": "002", "DISTRICT": "002", "LOCATION": "West Street School", "ADDRESS": "30 West St", "CITY": "Geneva", "HANDICAP": null, "PARK": null, "PHONE": null, "X_COORD": 709702.630000, "Y_COORD": 1044382.745000, "JOINCODE": "002002002" }, "geometry": { "type": "Point", "coordinates": [ -76.995532912457563, 42.865652211076466 ] } },
{ "type": "Feature", "properties": { "X": 709506.370000, "Y": 1048217.195000, "TOWN": "002", "WARD": "003", "DISTRICT": "001", "LOCATION": "North Street School", "ADDRESS": "400 West North St", "CITY": "Geneva", "HANDICAP": null, "PARK": null, "PHONE": null, "X_COORD": 709506.370000, "Y_COORD": 1048217.195000, "JOINCODE": "002003001" }, "geometry": { "type": "Point", "coordinates": [ -76.996335110189634, 42.876170619183817 ] } },
{ "type": "Feature", "properties": { "X": 709506.370000, "Y": 1048217.195000, "TOWN": "002", "WARD": "003", "DISTRICT": "002", "LOCATION": "North Street School", "ADDRESS": "400 West North St", "CITY": "Geneva", "HANDICAP": null, "PARK": null, "PHONE": null, "X_COORD": 709506.370000, "Y_COORD": 1048217.195000, "JOINCODE": "002003002" }, "geometry": { "type": "Point", "coordinates": [ -76.996335110189634, 42.876170619183817 ] } },
{ "type": "Feature", "properties": { "X": 710243.530000, "Y": 1049621.685000, "TOWN": "002", "WARD": "004", "DISTRICT": "001", "LOCATION": "Geneva High School", "ADDRESS": "101 Carter Rd", "CITY": "Geneva", "HANDICAP": null, "PARK": null, "PHONE": null, "X_COORD": 710243.530000, "Y_COORD": 1049621.685000, "JOINCODE": "002004001" }, "geometry": { "type": "Point", "coordinates": [ -76.993610547125272, 42.880034172714957 ] } },
{ "type": "Feature", "properties": { "X": 710243.530000, "Y": 1049621.685000, "TOWN": "002", "WARD": "004", "DISTRICT": "002", "LOCATION": "Geneva High School", "ADDRESS": "101 Carter Rd", "CITY": "Geneva", "HANDICAP": null, "PARK": null, "PHONE": null, "X_COORD": 710243.530000, "Y_COORD": 1049621.685000, "JOINCODE": "002004002" }, "geometry": { "type": "Point", "coordinates": [ -76.993610547125272, 42.880034172714957 ] } },
{ "type": "Feature", "properties": { "X": 713097.950000, "Y": 1045317.255000, "TOWN": "002", "WARD": "005", "DISTRICT": "001", "LOCATION": "Hydrant Hose Fire Hall", "ADDRESS": "79 Geneva Street", "CITY": "Geneva", "HANDICAP": null, "PARK": null, "PHONE": null, "X_COORD": 713097.950000, "Y_COORD": 1045317.255000, "JOINCODE": "002005001" }, "geometry": { "type": "Point", "coordinates": [ -76.982884802360559, 42.868261240337908 ] } },
{ "type": "Feature", "properties": { "X": 713097.950000, "Y": 1045317.255000, "TOWN": "002", "WARD": "005", "DISTRICT": "002", "LOCATION": "Hydrant Hose Fire Hall", "ADDRESS": "79 Geneva Street", "CITY": "Geneva", "HANDICAP": null, "PARK": null, "PHONE": null, "X_COORD": 713097.950000, "Y_COORD": 1045317.255000, "JOINCODE": "002005002" }, "geometry": { "type": "Point", "coordinates": [ -76.982884802360559, 42.868261240337908 ] } },
{ "type": "Feature", "properties": { "X": 718104.600000, "Y": 1049646.055000, "TOWN": "002", "WARD": "006", "DISTRICT": "001", "LOCATION": "Courtyard Apartments", "ADDRESS": "10 Goodman St", "CITY": "Geneva", "HANDICAP": null, "PARK": null, "PHONE": null, "X_COORD": 718104.600000, "Y_COORD": 1049646.055000, "JOINCODE": "002006001" }, "geometry": { "type": "Point", "coordinates": [ -76.964282068739521, 42.88020238399757 ] } },
{ "type": "Feature", "properties": { "X": 718104.600000, "Y": 1049646.055000, "TOWN": "002", "WARD": "006", "DISTRICT": "002", "LOCATION": "Courtyard Apartments", "ADDRESS": "10 Goodman St", "CITY": "Geneva", "HANDICAP": null, "PARK": null, "PHONE": null, "X_COORD": 718104.600000, "Y_COORD": 1049646.055000, "JOINCODE": "002006002" }, "geometry": { "type": "Point", "coordinates": [ -76.964282068739521, 42.88020238399757 ] } },
{ "type": "Feature", "properties": { "X": 602653.429375, "Y": 1027271.428750, "TOWN": "021", "WARD": "000", "DISTRICT": "001", "LOCATION": "Bristol Fire Hall", "ADDRESS": "4350 State Rt 64", "CITY": "Canandaigua", "HANDICAP": null, "PARK": null, "PHONE": null, "X_COORD": 602653.429375, "Y_COORD": 1027271.428750, "JOINCODE": "021000001" }, "geometry": { "type": "Point", "coordinates": [ -77.394195675526049, 42.816571329046468 ] } },
{ "type": "Feature", "properties": { "X": 602653.429375, "Y": 1027271.428750, "TOWN": "021", "WARD": "000", "DISTRICT": "002", "LOCATION": "Bristol Fire Hall", "ADDRESS": "4350 State Rt 64", "CITY": "Canandaigua", "HANDICAP": null, "PARK": null, "PHONE": null, "X_COORD": 602653.429375, "Y_COORD": 1027271.428750, "JOINCODE": "021000002" }, "geometry": { "type": "Point", "coordinates": [ -77.394195675526049, 42.816571329046468 ] } },
{ "type": "Feature", "properties": { "X": 561262.800000, "Y": 998728.435000, "TOWN": "022", "WARD": "000", "DISTRICT": "001", "LOCATION": "Canadice Town Hall", "ADDRESS": "5949 County Road 37", "CITY": "Springwater", "HANDICAP": null, "PARK": null, "PHONE": null, "X_COORD": 561262.800000, "Y_COORD": 998728.435000, "JOINCODE": "022000001" }, "geometry": { "type": "Point", "coordinates": [ -77.547230210396265, 42.73706597887336 ] } },
{ "type": "Feature", "properties": { "X": 561262.800000, "Y": 998728.435000, "TOWN": "022", "WARD": "000", "DISTRICT": "002", "LOCATION": "Canadice Town Hall", "ADDRESS": "5949 County Road 37", "CITY": "Springwater", "HANDICAP": null, "PARK": null, "PHONE": null, "X_COORD": 561262.800000, "Y_COORD": 998728.435000, "JOINCODE": "022000002" }, "geometry": { "type": "Point", "coordinates": [ -77.547230210396265, 42.73706597887336 ] } },
{ "type": "Feature", "properties": { "X": 624421.510000, "Y": 1050775.355000, "TOWN": "023", "WARD": "000", "DISTRICT": "003", "LOCATION": "Canandaigua - Town Hall", "ADDRESS": "5440 Route 5&20", "CITY": "Canandaigua", "HANDICAP": null, "PARK": null, "PHONE": null, "X_COORD": 624421.510000, "Y_COORD": 1050775.355000, "JOINCODE": "023000003" }, "geometry": { "type": "Point", "coordinates": [ -77.313828855094769, 42.881604344905625 ] } },
{ "type": "Feature", "properties": { "X": 630036.220000, "Y": 1045399.237187, "TOWN": "023", "WARD": "000", "DISTRICT": "004", "LOCATION": "Crosswinds Church", "ADDRESS": "3360 Middle Cheshire R", "CITY": "Canandaigua", "HANDICAP": null, "PARK": null, "PHONE": null, "X_COORD": 624421.510000, "Y_COORD": 1050775.355000, "JOINCODE": "023000004" }, "geometry": { "type": "Point", "coordinates": [ -77.292712567416075, 42.86698573804474 ] } },
{ "type": "Feature", "properties": { "X": 630036.220000, "Y": 1045399.237187, "TOWN": "023", "WARD": "000", "DISTRICT": "005", "LOCATION": "Crosswinds Church", "ADDRESS": "3360 Middle Cheshire R", "CITY": "Canandaigua", "HANDICAP": null, "PARK": null, "PHONE": null, "X_COORD": 624421.510000, "Y_COORD": 1050775.355000, "JOINCODE": "023000005" }, "geometry": { "type": "Point", "coordinates": [ -77.292712567416075, 42.86698573804474 ] } },
{ "type": "Feature", "properties": { "X": 620526.590000, "Y": 1028755.165000, "TOWN": "023", "WARD": "000", "DISTRICT": "006", "LOCATION": "Cheshire Fire Hall", "ADDRESS": "4285 State Rt 21 South", "CITY": "Canandaigua", "HANDICAP": null, "PARK": null, "PHONE": null, "X_COORD": 620526.590000, "Y_COORD": 1028755.165000, "JOINCODE": "023000006" }, "geometry": { "type": "Point", "coordinates": [ -77.327634070081174, 42.821094568354425 ] } },
{ "type": "Feature", "properties": { "X": 620526.590000, "Y": 1028755.165000, "TOWN": "023", "WARD": "000", "DISTRICT": "007", "LOCATION": "Cheshire Fire Hall", "ADDRESS": "4285 State Rt 21 South", "CITY": "Canandaigua", "HANDICAP": null, "PARK": null, "PHONE": null, "X_COORD": 620526.590000, "Y_COORD": 1028755.165000, "JOINCODE": "023000007" }, "geometry": { "type": "Point", "coordinates": [ -77.327634070081174, 42.821094568354425 ] } },
{ "type": "Feature", "properties": { "X": 598295.679688, "Y": 1052261.001250, "TOWN": "024", "WARD": "000", "DISTRICT": "001", "LOCATION": "Veterans Park Building", "ADDRESS": "6910 Rts 5 & 20", "CITY": "East Bloomfield", "HANDICAP": null, "PARK": null, "PHONE": null, "X_COORD": 598295.679688, "Y_COORD": 1052261.001250, "JOINCODE": "024000001" }, "geometry": { "type": "Point", "coordinates": [ -77.411351469219966, 42.885016953441998 ] } },
{ "type": "Feature", "properties": { "X": 598295.679688, "Y": 1052261.001250, "TOWN": "024", "WARD": "000", "DISTRICT": "002", "LOCATION": "Veterans Park Building", "ADDRESS": "6910 Rts 5 & 20", "CITY": "East Bloomfield", "HANDICAP": null, "PARK": null, "PHONE": null, "X_COORD": 598295.679688, "Y_COORD": 1052261.001250, "JOINCODE": "024000002" }, "geometry": { "type": "Point", "coordinates": [ -77.411351469219966, 42.885016953441998 ] } },
{ "type": "Feature", "properties": { "X": 598295.679688, "Y": 1052261.001250, "TOWN": "024", "WARD": "000", "DISTRICT": "003", "LOCATION": "Veterans Park Building", "ADDRESS": "6910 Rts 5 & 20", "CITY": "East Bloomfield", "HANDICAP": null, "PARK": null, "PHONE": null, "X_COORD": 598295.679688, "Y_COORD": 1052261.001250, "JOINCODE": "024000003" }, "geometry": { "type": "Point", "coordinates": [ -77.411351469219966, 42.885016953441998 ] } },
{ "type": "Feature", "properties": { "X": 620204.640000, "Y": 1105523.135000, "TOWN": "025", "WARD": "000", "DISTRICT": "001", "LOCATION": "Fire Station #1", "ADDRESS": "135 Hook Rd", "CITY": "Farmington", "HANDICAP": null, "PARK": null, "PHONE": null, "X_COORD": 620204.640000, "Y_COORD": 1105523.135000, "JOINCODE": "025000001" }, "geometry": { "type": "Point", "coordinates": [ -77.33137831637886, 43.031709868137369 ] } },
{ "type": "Feature", "properties": { "X": 620204.640000, "Y": 1105523.135000, "TOWN": "025", "WARD": "000", "DISTRICT": "002", "LOCATION": "Fire Station #1", "ADDRESS": "135 Hook Rd", "CITY": "Farmington", "HANDICAP": null, "PARK": null, "PHONE": null, "X_COORD": 620204.640000, "Y_COORD": 1105523.135000, "JOINCODE": "025000002" }, "geometry": { "type": "Point", "coordinates": [ -77.33137831637886, 43.031709868137369 ] } },
{ "type": "Feature", "properties": { "X": 621263.510000, "Y": 1090167.485000, "TOWN": "025", "WARD": "000", "DISTRICT": "003", "LOCATION": "Farmington - Town Hall", "ADDRESS": "1000 County Road 8", "CITY": "Farmington", "HANDICAP": null, "PARK": null, "PHONE": null, "X_COORD": 621263.510000, "Y_COORD": 1090167.485000, "JOINCODE": "025000003" }, "geometry": { "type": "Point", "coordinates": [ -77.326909888329695, 42.989606015852111 ] } },
{ "type": "Feature", "properties": { "X": 610214.956875, "Y": 1081480.463125, "TOWN": "025", "WARD": "000", "DISTRICT": "005", "LOCATION": "Mertensia Park Lodge", "ADDRESS": "1438 Mertensia Rd", "CITY": "Farmington", "HANDICAP": null, "PARK": null, "PHONE": null, "X_COORD": 610214.956875, "Y_COORD": 1081480.463125, "JOINCODE": "025000005" }, "geometry": { "type": "Point", "coordinates": [ -77.367898213915467, 42.965496738338622 ] } },
{ "type": "Feature", "properties": { "X": 610214.956875, "Y": 1081480.463125, "TOWN": "025", "WARD": "000", "DISTRICT": "006", "LOCATION": "Mertensia Park Lodge", "ADDRESS": "1438 Mertensia Rd", "CITY": "Farmington", "HANDICAP": null, "PARK": null, "PHONE": null, "X_COORD": 610214.956875, "Y_COORD": 1081480.463125, "JOINCODE": "025000006" }, "geometry": { "type": "Point", "coordinates": [ -77.367898213915467, 42.965496738338622 ] } },
{ "type": "Feature", "properties": { "X": 621263.510000, "Y": 1090167.485000, "TOWN": "025", "WARD": "000", "DISTRICT": "007", "LOCATION": "Farmington - Town Hall", "ADDRESS": "1000 County Road 8", "CITY": "Farmington", "HANDICAP": null, "PARK": null, "PHONE": null, "X_COORD": 621263.510000, "Y_COORD": 1090167.485000, "JOINCODE": "025000007" }, "geometry": { "type": "Point", "coordinates": [ -77.326909888329695, 42.989606015852111 ] } },
{ "type": "Feature", "properties": { "X": 610214.956875, "Y": 1081480.463125, "TOWN": "025", "WARD": "000", "DISTRICT": "008", "LOCATION": "Mertensia Park Lodge", "ADDRESS": "1438 Mertensia Rd", "CITY": "Farmington", "HANDICAP": null, "PARK": null, "PHONE": null, "X_COORD": 610214.956875, "Y_COORD": 1081480.463125, "JOINCODE": "025000008" }, "geometry": { "type": "Point", "coordinates": [ -77.367898213915467, 42.965496738338622 ] } },
{ "type": "Feature", "properties": { "X": 621263.510000, "Y": 1090167.485000, "TOWN": "025", "WARD": "000", "DISTRICT": "0010", "LOCATION": "Farmington - Town Hall", "ADDRESS": "1000 County Road 8", "CITY": "Farmington", "HANDICAP": null, "PARK": null, "PHONE": null, "X_COORD": 621263.510000, "Y_COORD": 1090167.485000, "JOINCODE": "0250000010" }, "geometry": { "type": "Point", "coordinates": [ -77.326909888329695, 42.989606015852111 ] } },
{ "type": "Feature", "properties": { "X": 705669.930000, "Y": 1038603.945000, "TOWN": "026", "WARD": "000", "DISTRICT": "001", "LOCATION": "Geneva - Town Hall", "ADDRESS": "3750 County Road 6", "CITY": "Geneva", "HANDICAP": null, "PARK": null, "PHONE": null, "X_COORD": 705669.930000, "Y_COORD": 1038603.945000, "JOINCODE": "026000001" }, "geometry": { "type": "Point", "coordinates": [ -77.010465667944558, 42.84974106563331 ] } },
{ "type": "Feature", "properties": { "X": 710197.512500, "Y": 1050312.960312, "TOWN": "026", "WARD": "000", "DISTRICT": "002", "LOCATION": "Geneva Community Center", "ADDRESS": "206 Carter Rd", "CITY": "Geneva", "HANDICAP": null, "PARK": null, "PHONE": null, "X_COORD": 710197.512500, "Y_COORD": 1050312.960312, "JOINCODE": "026000002" }, "geometry": { "type": "Point", "coordinates": [ -76.993794806388053, 42.88193029059164 ] } },
{ "type": "Feature", "properties": { "X": 705669.930000, "Y": 1038603.945000, "TOWN": "026", "WARD": "000", "DISTRICT": "003", "LOCATION": "Geneva - Town Hall", "ADDRESS": "3750 County Road 6", "CITY": "Geneva", "HANDICAP": null, "PARK": null, "PHONE": null, "X_COORD": 705669.930000, "Y_COORD": 1038603.945000, "JOINCODE": "026000003" }, "geometry": { "type": "Point", "coordinates": [ -77.010465667944558, 42.84974106563331 ] } },
{ "type": "Feature", "properties": { "X": 671679.010000, "Y": 1021484.345000, "TOWN": "027", "WARD": "000", "DISTRICT": "001", "LOCATION": "Gorham Fire Dept", "ADDRESS": "4676 Kearney Rd", "CITY": "Gorham", "HANDICAP": null, "PARK": null, "PHONE": null, "X_COORD": 671679.010000, "Y_COORD": 1021484.345000, "JOINCODE": "027000001" }, "geometry": { "type": "Point", "coordinates": [ -77.136799012323621, 42.802225534432893 ] } },
{ "type": "Feature", "properties": { "X": 671679.010000, "Y": 1021484.345000, "TOWN": "027", "WARD": "000", "DISTRICT": "002", "LOCATION": "Gorham Fire Dept", "ADDRESS": "4676 Kearney Rd", "CITY": "Gorham", "HANDICAP": null, "PARK": null, "PHONE": null, "X_COORD": 671679.010000, "Y_COORD": 1021484.345000, "JOINCODE": "027000002" }, "geometry": { "type": "Point", "coordinates": [ -77.136799012323621, 42.802225534432893 ] } },
{ "type": "Feature", "properties": { "X": 638791.840000, "Y": 1025248.195000, "TOWN": "027", "WARD": "000", "DISTRICT": "003", "LOCATION": "Crystal Beach Fire Dept", "ADDRESS": "4468 State Rt 364", "CITY": "Canandaigua", "HANDICAP": null, "PARK": null, "PHONE": null, "X_COORD": 638791.840000, "Y_COORD": 1025248.195000, "JOINCODE": "027000003" }, "geometry": { "type": "Point", "coordinates": [ -77.259451557661521, 42.811894685514638 ] } },
{ "type": "Feature", "properties": { "X": 638791.840000, "Y": 1025248.195000, "TOWN": "027", "WARD": "000", "DISTRICT": "004", "LOCATION": "Crystal Beach Fire Dept", "ADDRESS": "4468 State Rt 364", "CITY": "Canandaigua", "HANDICAP": null, "PARK": null, "PHONE": null, "X_COORD": 638791.840000, "Y_COORD": 1025248.195000, "JOINCODE": "027000004" }, "geometry": { "type": "Point", "coordinates": [ -77.259451557661521, 42.811894685514638 ] } },
{ "type": "Feature", "properties": { "X": 649979.946250, "Y": 1054002.808750, "TOWN": "028", "WARD": "000", "DISTRICT": "001", "LOCATION": "OC Safety Training Center", "ADDRESS": "2914 County Rd 48", "CITY": "Canandaigua", "HANDICAP": null, "PARK": null, "PHONE": null, "X_COORD": 649979.946250, "Y_COORD": 1054002.808750, "JOINCODE": "028000001" }, "geometry": { "type": "Point", "coordinates": [ -77.218565395736078, 42.891028276965599 ] } },
{ "type": "Feature", "properties": { "X": 649979.946250, "Y": 1054002.808750, "TOWN": "028", "WARD": "000", "DISTRICT": "002", "LOCATION": "OC Safety Training Center", "ADDRESS": "2914 County Rd 48", "CITY": "Canandaigua", "HANDICAP": null, "PARK": null, "PHONE": null, "X_COORD": 649979.946250, "Y_COORD": 1054002.808750, "JOINCODE": "028000002" }, "geometry": { "type": "Point", "coordinates": [ -77.218565395736078, 42.891028276965599 ] } },
{ "type": "Feature", "properties": { "X": 649979.946250, "Y": 1054002.808750, "TOWN": "028", "WARD": "000", "DISTRICT": "003", "LOCATION": "OC Safety Training Center", "ADDRESS": "2914 County Rd 48", "CITY": "Canandaigua", "HANDICAP": null, "PARK": null, "PHONE": null, "X_COORD": 649979.946250, "Y_COORD": 1054002.808750, "JOINCODE": "028000003" }, "geometry": { "type": "Point", "coordinates": [ -77.218565395736078, 42.891028276965599 ] } },
{ "type": "Feature", "properties": { "X": 671230.520000, "Y": 1081231.965000, "TOWN": "029", "WARD": "000", "DISTRICT": "001", "LOCATION": "Clifton Springs Fire Department", "ADDRESS": "39 Kendall St", "CITY": "Clifton Springs", "HANDICAP": null, "PARK": null, "PHONE": null, "X_COORD": 671230.520000, "Y_COORD": 1081231.965000, "JOINCODE": "029000001" }, "geometry": { "type": "Point", "coordinates": [ -77.139941984677847, 42.966150398395598 ] } },
{ "type": "Feature", "properties": { "X": 660270.200000, "Y": 1083135.485000, "TOWN": "029", "WARD": "000", "DISTRICT": "002", "LOCATION": "Manchester Town Hall", "ADDRESS": "1272 County Road 7", "CITY": "Clifton Springs", "HANDICAP": null, "PARK": null, "PHONE": null, "X_COORD": 660270.200000, "Y_COORD": 1083135.485000, "JOINCODE": "029000002" }, "geometry": { "type": "Point", "coordinates": [ -77.180940222594984, 42.971166637085595 ] } },
{ "type": "Feature", "properties": { "X": 667330.410000, "Y": 1107095.135000, "TOWN": "029", "WARD": "000", "DISTRICT": "003", "LOCATION": "Port Gibson Fire Hall", "ADDRESS": "2939 Grieg St", "CITY": "Port Gibson", "HANDICAP": null, "PARK": null, "PHONE": null, "X_COORD": 667330.410000, "Y_COORD": 1107095.135000, "JOINCODE": "029000003" }, "geometry": { "type": "Point", "coordinates": [ -77.155170549367739, 43.037039220465111 ] } },
{ "type": "Feature", "properties": { "X": 660270.200000, "Y": 1083135.485000, "TOWN": "029", "WARD": "000", "DISTRICT": "004", "LOCATION": "Manchester Town Hall", "ADDRESS": "1272 County Road 7", "CITY": "Clifton Springs", "HANDICAP": null, "PARK": null, "PHONE": null, "X_COORD": 660270.200000, "Y_COORD": 1083135.485000, "JOINCODE": "029000004" }, "geometry": { "type": "Point", "coordinates": [ -77.180940222594984, 42.971166637085595 ] } },
{ "type": "Feature", "properties": { "X": 647411.760000, "Y": 1082667.645000, "TOWN": "029", "WARD": "000", "DISTRICT": "005", "LOCATION": "Manchester Village Hall", "ADDRESS": "8 Clifton St", "CITY": "Manchester", "HANDICAP": null, "PARK": null, "PHONE": null, "X_COORD": 647411.760000, "Y_COORD": 1082667.645000, "JOINCODE": "029000005" }, "geometry": { "type": "Point", "coordinates": [ -77.228969329388661, 42.969622125615111 ] } },
{ "type": "Feature", "properties": { "X": 647411.760000, "Y": 1082667.645000, "TOWN": "029", "WARD": "000", "DISTRICT": "006", "LOCATION": "Manchester Village Hall", "ADDRESS": "8 Clifton St", "CITY": "Manchester", "HANDICAP": null, "PARK": null, "PHONE": null, "X_COORD": 647411.760000, "Y_COORD": 1082667.645000, "JOINCODE": "029000006" }, "geometry": { "type": "Point", "coordinates": [ -77.228969329388661, 42.969622125615111 ] } },
{ "type": "Feature", "properties": { "X": 649596.160000, "Y": 1077447.725000, "TOWN": "029", "WARD": "000", "DISTRICT": "007", "LOCATION": "Shortsville Village Hall", "ADDRESS": "5 Sheldon St", "CITY": "Shortsville", "HANDICAP": null, "PARK": null, "PHONE": null, "X_COORD": 649596.160000, "Y_COORD": 1077447.725000, "JOINCODE": "029000007" }, "geometry": { "type": "Point", "coordinates": [ -77.2206601966856, 42.955346086292806 ] } },
{ "type": "Feature", "properties": { "X": 649596.160000, "Y": 1077447.725000, "TOWN": "029", "WARD": "000", "DISTRICT": "008", "LOCATION": "Shortsville Village Hall", "ADDRESS": "5 Sheldon St", "CITY": "Shortsville", "HANDICAP": null, "PARK": null, "PHONE": null, "X_COORD": 649596.160000, "Y_COORD": 1077447.725000, "JOINCODE": "029000008" }, "geometry": { "type": "Point", "coordinates": [ -77.2206601966856, 42.955346086292806 ] } },
{ "type": "Feature", "properties": { "X": 599173.150000, "Y": 953353.875000, "TOWN": "030", "WARD": "000", "DISTRICT": "001", "LOCATION": "Naples Fire Hall", "ADDRESS": "5 Vine St", "CITY": "Naples", "HANDICAP": null, "PARK": null, "PHONE": null, "X_COORD": 599173.150000, "Y_COORD": 953353.875000, "JOINCODE": "030000001" }, "geometry": { "type": "Point", "coordinates": [ -77.404487580300156, 42.613672298313681 ] } },
{ "type": "Feature", "properties": { "X": 599173.150000, "Y": 953353.875000, "TOWN": "030", "WARD": "000", "DISTRICT": "002", "LOCATION": "Naples Fire Hall", "ADDRESS": "5 Vine St", "CITY": "Naples", "HANDICAP": null, "PARK": null, "PHONE": null, "X_COORD": 599173.150000, "Y_COORD": 953353.875000, "JOINCODE": "030000002" }, "geometry": { "type": "Point", "coordinates": [ -77.404487580300156, 42.613672298313681 ] } },
{ "type": "Feature", "properties": { "X": 690609.143125, "Y": 1077575.676562, "TOWN": "031", "WARD": "000", "DISTRICT": "001", "LOCATION": "Phelps Firemens Hall", "ADDRESS": "77 Ontario St", "CITY": "Phelps", "HANDICAP": null, "PARK": null, "PHONE": null, "X_COORD": 691974.576250, "Y_COORD": 1078532.614375, "JOINCODE": "031000001" }, "geometry": { "type": "Point", "coordinates": [ -77.067463918874012, 42.956447614018622 ] } },
{ "type": "Feature", "properties": { "X": 690609.143125, "Y": 1077575.676562, "TOWN": "031", "WARD": "000", "DISTRICT": "002", "LOCATION": "Phelps Firemens Hall", "ADDRESS": "77 Ontario St", "CITY": "Phelps", "HANDICAP": null, "PARK": null, "PHONE": null, "X_COORD": 691974.576250, "Y_COORD": 1078532.614375, "JOINCODE": "031000002" }, "geometry": { "type": "Point", "coordinates": [ -77.067463918874012, 42.956447614018622 ] } },
{ "type": "Feature", "properties": { "X": 708440.240000, "Y": 1068920.125000, "TOWN": "031", "WARD": "000", "DISTRICT": "003", "LOCATION": "Oaks Corners Fire Hall", "ADDRESS": "607 Cross Rd", "CITY": "Oaks Corners", "HANDICAP": null, "PARK": null, "PHONE": null, "X_COORD": 708440.240000, "Y_COORD": 1068920.125000, "JOINCODE": "031000003" }, "geometry": { "type": "Point", "coordinates": [ -77.000695496420093, 42.932960979680061 ] } },
{ "type": "Feature", "properties": { "X": 690609.143125, "Y": 1077575.676562, "TOWN": "031", "WARD": "000", "DISTRICT": "005", "LOCATION": "Phelps Firemens Hall", "ADDRESS": "77 Ontario St", "CITY": "Phelps", "HANDICAP": null, "PARK": null, "PHONE": null, "X_COORD": 691974.576250, "Y_COORD": 1078532.614375, "JOINCODE": "031000005" }, "geometry": { "type": "Point", "coordinates": [ -77.067463918874012, 42.956447614018622 ] } },
{ "type": "Feature", "properties": { "X": 690609.143125, "Y": 1077575.676562, "TOWN": "031", "WARD": "000", "DISTRICT": "006", "LOCATION": "Phelps Firemens Hall", "ADDRESS": "77 Ontario St", "CITY": "Phelps", "HANDICAP": null, "PARK": null, "PHONE": null, "X_COORD": 691974.576250, "Y_COORD": 1078532.614375, "JOINCODE": "031000006" }, "geometry": { "type": "Point", "coordinates": [ -77.067463918874012, 42.956447614018622 ] } },
{ "type": "Feature", "properties": { "X": 570498.700000, "Y": 1017777.255000, "TOWN": "032", "WARD": "000", "DISTRICT": "001", "LOCATION": "Richmond Town Hall", "ADDRESS": "8690 Main St", "CITY": "Honeoye", "HANDICAP": null, "PARK": null, "PHONE": null, "X_COORD": 570498.700000, "Y_COORD": 1017777.255000, "JOINCODE": "032000001" }, "geometry": { "type": "Point", "coordinates": [ -77.513636740654803, 42.78961214950975 ] } },
{ "type": "Feature", "properties": { "X": 570498.700000, "Y": 1017777.255000, "TOWN": "032", "WARD": "000", "DISTRICT": "002", "LOCATION": "Richmond Town Hall", "ADDRESS": "8690 Main St", "CITY": "Honeoye", "HANDICAP": null, "PARK": null, "PHONE": null, "X_COORD": 570498.700000, "Y_COORD": 1017777.255000, "JOINCODE": "032000002" }, "geometry": { "type": "Point", "coordinates": [ -77.513636740654803, 42.78961214950975 ] } },
{ "type": "Feature", "properties": { "X": 570498.700000, "Y": 1017777.255000, "TOWN": "032", "WARD": "000", "DISTRICT": "003", "LOCATION": "Richmond Town Hall", "ADDRESS": "8690 Main St", "CITY": "Honeoye", "HANDICAP": null, "PARK": null, "PHONE": null, "X_COORD": 570498.700000, "Y_COORD": 1017777.255000, "JOINCODE": "032000003" }, "geometry": { "type": "Point", "coordinates": [ -77.513636740654803, 42.78961214950975 ] } },
{ "type": "Feature", "properties": { "X": 680637.611563, "Y": 1039970.296250, "TOWN": "033", "WARD": "000", "DISTRICT": "001", "LOCATION": "Seneca Town Park Pavilion", "ADDRESS": "3675 Flint Rd", "CITY": "Stanley", "HANDICAP": null, "PARK": null, "PHONE": null, "X_COORD": 680637.611563, "Y_COORD": 1039970.296250, "JOINCODE": "033000001" }, "geometry": { "type": "Point", "coordinates": [ -77.103843312119366, 42.853103767304738 ] } },
{ "type": "Feature", "properties": { "X": 680637.611563, "Y": 1039970.296250, "TOWN": "033", "WARD": "000", "DISTRICT": "002", "LOCATION": "Seneca Town Park Pavilion", "ADDRESS": "3675 Flint Rd", "CITY": "Stanley", "HANDICAP": null, "PARK": null, "PHONE": null, "X_COORD": 680637.611563, "Y_COORD": 1039970.296250, "JOINCODE": "033000002" }, "geometry": { "type": "Point", "coordinates": [ -77.103843312119366, 42.853103767304738 ] } },
{ "type": "Feature", "properties": { "X": 680637.611563, "Y": 1039970.296250, "TOWN": "033", "WARD": "000", "DISTRICT": "003", "LOCATION": "Seneca Town Park Pavilion", "ADDRESS": "3675 Flint Rd", "CITY": "Stanley", "HANDICAP": null, "PARK": null, "PHONE": null, "X_COORD": 680637.611563, "Y_COORD": 1039970.296250, "JOINCODE": "033000003" }, "geometry": { "type": "Point", "coordinates": [ -77.103843312119366, 42.853103767304738 ] } },
{ "type": "Feature", "properties": { "X": 605482.540000, "Y": 988012.355000, "TOWN": "034", "WARD": "000", "DISTRICT": "001", "LOCATION": "South Bristol Town Hall", "ADDRESS": "6500 Gannett Hill Rd", "CITY": "Naples", "HANDICAP": null, "PARK": null, "PHONE": null, "X_COORD": 605482.540000, "Y_COORD": 988012.355000, "JOINCODE": "034000001" }, "geometry": { "type": "Point", "coordinates": [ -77.38226684166375, 42.708931288244266 ] } },
{ "type": "Feature", "properties": { "X": 605482.540000, "Y": 988012.355000, "TOWN": "034", "WARD": "000", "DISTRICT": "002", "LOCATION": "South Bristol Town Hall", "ADDRESS": "6500 Gannett Hill Rd", "CITY": "Naples", "HANDICAP": null, "PARK": null, "PHONE": null, "X_COORD": 605482.540000, "Y_COORD": 988012.355000, "JOINCODE": "034000002" }, "geometry": { "type": "Point", "coordinates": [ -77.38226684166375, 42.708931288244266 ] } },
{ "type": "Feature", "properties": { "X": 597347.090000, "Y": 1087105.895000, "TOWN": "035", "WARD": "000", "DISTRICT": "0010", "LOCATION": "Victor Town Court Facility", "ADDRESS": "11 Framark Dr", "CITY": "Victor", "HANDICAP": null, "PARK": null, "PHONE": null, "X_COORD": 597347.090000, "Y_COORD": 1087105.895000, "JOINCODE": "0350000010" }, "geometry": { "type": "Point", "coordinates": [ -77.416177801440497, 42.980590813245335 ] } },
{ "type": "Feature", "properties": { "X": 599488.060000, "Y": 1087666.815000, "TOWN": "035", "WARD": "000", "DISTRICT": "001", "LOCATION": "Victor Village Hall", "ADDRESS": "60 East Main St", "CITY": "Victor", "HANDICAP": null, "PARK": null, "PHONE": null, "X_COORD": 599488.060000, "Y_COORD": 1087666.815000, "JOINCODE": "035000001" }, "geometry": { "type": "Point", "coordinates": [ -77.408198269439993, 42.982187661573313 ] } },
{ "type": "Feature", "properties": { "X": 594872.066875, "Y": 1096268.128750, "TOWN": "035", "WARD": "000", "DISTRICT": "002", "LOCATION": "Legacy At The Fairways", "ADDRESS": "681 High St", "CITY": "Victor", "HANDICAP": null, "PARK": null, "PHONE": null, "X_COORD": 594872.066875, "Y_COORD": 1096268.128750, "JOINCODE": "035000002" }, "geometry": { "type": "Point", "coordinates": [ -77.425769411656347, 43.005660070860905 ] } },
{ "type": "Feature", "properties": { "X": 594872.066875, "Y": 1096268.128750, "TOWN": "035", "WARD": "000", "DISTRICT": "003", "LOCATION": "Legacy At The Fairways", "ADDRESS": "681 High St", "CITY": "Victor", "HANDICAP": "Y", "PARK": "Y", "PHONE": null, "X_COORD": 594872.066875, "Y_COORD": 1096268.128750, "JOINCODE": "035000003" }, "geometry": { "type": "Point", "coordinates": [ -77.425769411656347, 43.005660070860905 ] } },
{ "type": "Feature", "properties": { "X": 599642.840000, "Y": 1087619.005000, "TOWN": "035", "WARD": "000", "DISTRICT": "004", "LOCATION": "Victor Town Hall", "ADDRESS": "85 East Main St", "CITY": "Victor", "HANDICAP": null, "PARK": null, "PHONE": null, "X_COORD": 599642.840000, "Y_COORD": 1087619.005000, "JOINCODE": "035000004" }, "geometry": { "type": "Point", "coordinates": [ -77.407618139378982, 42.982060659040513 ] } },
{ "type": "Feature", "properties": { "X": 599642.840000, "Y": 1087619.005000, "TOWN": "035", "WARD": "000", "DISTRICT": "005", "LOCATION": "Victor Town Hall", "ADDRESS": "85 East Main St", "CITY": "Victor", "HANDICAP": null, "PARK": null, "PHONE": null, "X_COORD": 599642.840000, "Y_COORD": 1087619.005000, "JOINCODE": "035000005" }, "geometry": { "type": "Point", "coordinates": [ -77.407618139378982, 42.982060659040513 ] } },
{ "type": "Feature", "properties": { "X": 599488.060000, "Y": 1087666.815000, "TOWN": "035", "WARD": "000", "DISTRICT": "006", "LOCATION": "Victor Village Hall", "ADDRESS": "60 East Main Street", "CITY": "Victor", "HANDICAP": null, "PARK": null, "PHONE": null, "X_COORD": 599488.060000, "Y_COORD": 1087666.815000, "JOINCODE": "035000006" }, "geometry": { "type": "Point", "coordinates": [ -77.408198269439993, 42.982187661573313 ] } },
{ "type": "Feature", "properties": { "X": 597347.090000, "Y": 1087105.895000, "TOWN": "035", "WARD": "000", "DISTRICT": "007", "LOCATION": "Victor Town Court", "ADDRESS": "11 Framark Drive", "CITY": "Victor", "HANDICAP": null, "PARK": null, "PHONE": null, "X_COORD": 597347.090000, "Y_COORD": 1087105.895000, "JOINCODE": "035000007" }, "geometry": { "type": "Point", "coordinates": [ -77.416177801440497, 42.980590813245335 ] } },
{ "type": "Feature", "properties": { "X": 606120.500000, "Y": 1083928.795000, "TOWN": "035", "WARD": "000", "DISTRICT": "008", "LOCATION": "Autumn Grove", "ADDRESS": "1325 East Victor Rd", "CITY": "Victor", "HANDICAP": null, "PARK": null, "PHONE": null, "X_COORD": 606120.500000, "Y_COORD": 1083928.795000, "JOINCODE": "035000008" }, "geometry": { "type": "Point", "coordinates": [ -77.383281284933631, 42.972108059559837 ] } },
{ "type": "Feature", "properties": { "X": 608227.520000, "Y": 1088094.975000, "TOWN": "035", "WARD": "000", "DISTRICT": "009", "LOCATION": "Gypsum Mills Community Center", "ADDRESS": "6390 Plastermill Rd", "CITY": "Victor", "HANDICAP": null, "PARK": null, "PHONE": null, "X_COORD": 608227.520000, "Y_COORD": 1088094.975000, "JOINCODE": "035000009" }, "geometry": { "type": "Point", "coordinates": [ -77.375555789168899, 42.983593049838348 ] } },
{ "type": "Feature", "properties": { "X": 608227.520000, "Y": 1088094.975000, "TOWN": "035", "WARD": "000", "DISTRICT": "0011", "LOCATION": "Gypsum Mills Community Center", "ADDRESS": "6390 Plastermill Rd", "CITY": "Victor", "HANDICAP": null, "PARK": null, "PHONE": null, "X_COORD": 608227.520000, "Y_COORD": 1088094.975000, "JOINCODE": "0350000011" }, "geometry": { "type": "Point", "coordinates": [ -77.375555789168899, 42.983593049838348 ] } },
{ "type": "Feature", "properties": { "X": 599642.840000, "Y": 1087619.005000, "TOWN": "035", "WARD": "000", "DISTRICT": "0012", "LOCATION": "Victor Town Hall", "ADDRESS": "85 East Main St", "CITY": "Victor", "HANDICAP": null, "PARK": null, "PHONE": null, "X_COORD": 599642.840000, "Y_COORD": 1087619.005000, "JOINCODE": "0350000012" }, "geometry": { "type": "Point", "coordinates": [ -77.407618139378982, 42.982060659040513 ] } },
{ "type": "Feature", "properties": { "X": 564166.130000, "Y": 1059452.135000, "TOWN": "036", "WARD": "000", "DISTRICT": "001", "LOCATION": "West Bloomfield Fire Station", "ADDRESS": "2535 County Rd 37", "CITY": "West Bloomfield", "HANDICAP": null, "PARK": null, "PHONE": null, "X_COORD": 564166.130000, "Y_COORD": 1059452.135000, "JOINCODE": "036000001" }, "geometry": { "type": "Point", "coordinates": [ -77.538986818047249, 42.90375405669338 ] } },
{ "type": "Feature", "properties": { "X": 564166.130000, "Y": 1059452.135000, "TOWN": "036", "WARD": "000", "DISTRICT": "002", "LOCATION": "West Bloomfield Fire Station", "ADDRESS": "2535 County Rd 37", "CITY": "West Bloomfield", "HANDICAP": null, "PARK": null, "PHONE": null, "X_COORD": 564166.130000, "Y_COORD": 1059452.135000, "JOINCODE": "036000002" }, "geometry": { "type": "Point", "coordinates": [ -77.538986818047249, 42.90375405669338 ] } },
{ "type": "Feature", "properties": { "X": 616152.200000, "Y": 1080526.185000, "TOWN": "025", "WARD": "000", "DISTRICT": "004", "LOCATION": "United Methodist Church", "ADDRESS": "5925 County Road 41", "CITY": "Farmington", "HANDICAP": null, "PARK": null, "PHONE": null, "X_COORD": 616152.200000, "Y_COORD": 1080526.185000, "JOINCODE": "025000004" }, "geometry": { "type": "Point", "coordinates": [ -77.345685453093452, 42.963028461662944 ] } },
{ "type": "Feature", "properties": { "X": 616152.200000, "Y": 1080526.185000, "TOWN": "025", "WARD": "000", "DISTRICT": "009", "LOCATION": "United Methodist Church", "ADDRESS": "5925 County Road 41", "CITY": "Farmington", "HANDICAP": null, "PARK": null, "PHONE": null, "X_COORD": 616152.200000, "Y_COORD": 1080526.185000, "JOINCODE": "025000009" }, "geometry": { "type": "Point", "coordinates": [ -77.345685453093452, 42.963028461662944 ] } },
{ "type": "Feature", "properties": { "X": 632375.187187, "Y": 1054018.275000, "TOWN": "001", "WARD": "004", "DISTRICT": "001", "LOCATION": "First United Methodist Church", "ADDRESS": "100 North Main Street", "CITY": "Canandaigua", "HANDICAP": null, "PARK": null, "PHONE": null, "X_COORD": 635204.598125, "Y_COORD": 1055797.056875, "JOINCODE": "001004001" }, "geometry": { "type": "Point", "coordinates": [ -77.28425602657839, 42.890687371262715 ] } },
{ "type": "Feature", "properties": { "X": 631969.670000, "Y": 1049859.595000, "TOWN": "001", "WARD": "004", "DISTRICT": "002", "LOCATION": "Lutheran Church", "ADDRESS": "320 South Pearl St", "CITY": "Canandaigua", "HANDICAP": null, "PARK": null, "PHONE": null, "X_COORD": 631969.670000, "Y_COORD": 1049859.595000, "JOINCODE": "001004002" }, "geometry": { "type": "Point", "coordinates": [ -77.285639705793727, 42.879268012140166 ] } },
{ "type": "Feature", "properties": { "X": 625603.700000, "Y": 1061497.425000, "TOWN": "023", "WARD": "000", "DISTRICT": "001", "LOCATION": "Canandaigua Schools Oper. Bldg.", "ADDRESS": "5500 Airport Rd", "CITY": "Canandaigua", "HANDICAP": null, "PARK": null, "PHONE": null, "X_COORD": 625603.700000, "Y_COORD": 1061497.425000, "JOINCODE": "023000001" }, "geometry": { "type": "Point", "coordinates": [ -77.309763594666691, 42.911050113655023 ] } },
{ "type": "Feature", "properties": { "X": 625603.700000, "Y": 1061497.425000, "TOWN": "023", "WARD": "000", "DISTRICT": "002", "LOCATION": "Canandaigua Schools Oper. Bldg.", "ADDRESS": "5500 Airport Rd", "CITY": "Canandaigua", "HANDICAP": null, "PARK": null, "PHONE": null, "X_COORD": 625603.700000, "Y_COORD": 1061497.425000, "JOINCODE": "023000002" }, "geometry": { "type": "Point", "coordinates": [ -77.309763594666691, 42.911050113655023 ] } },
{ "type": "Feature", "properties": { "X": 674051.653438, "Y": 1079636.857813, "TOWN": "029", "WARD": "000", "DISTRICT": "004", "LOCATION": "Wellspring Church", "ADDRESS": "22 Teft Ave", "CITY": "Clifton Springs", "HANDICAP": null, "PARK": null, "PHONE": null, "X_COORD": 674051.653438, "Y_COORD": 1079636.857813, "JOINCODE": "029000004" }, "geometry": { "type": "Point", "coordinates": [ -77.129363473468132, 42.961824632777954 ] } }
]
}
